     2.10           OBSERVATION DATA    G (GPS)             RINEX VERSION / TYPE 
Just for the use of private program test                    COMMENT
     9    L1    L2    C1    P2    P1    D1    D2    S1    S2# / TYPES OF OBSERV
     1.0000                                                 INTERVAL
                                                            END OF HEADER
 06  1 11 13 15  0.0000000  0  8G 3G18G27G19G16G22G21G15
 -22899739.73449 -17802074.68149  20692916.9774   20692919.8774   20692916.7464
      1529.1624       1191.5584         56.0004         50.0004
 -17719525.13249 -13760158.21648  22047008.9264   22047011.2364   22047009.1584
       837.4004        652.5284         53.0004         46.0004
  -2950886.68948  -2252079.61047  24975044.3614   24975048.8024   24975044.2384
       968.5254        754.6914         42.0004         37.0004
  -8395986.98948  -6501519.05548  23543234.9394   23543236.9214   23543234.6214
      2996.0764       2334.6004         47.0004         42.0004
 -20433042.67449 -15859364.83749  21175673.7554   21175676.3004   21175673.7994
     -2026.1904      -1578.8454         55.0004         49.0004
 -10544024.51649  -8207552.32748  22612410.2474   22612411.0744   22612410.3414
      2867.3154       2234.2844         51.0004         44.0004
 -15427668.56149 -11768409.05748  22130096.9704   22130098.7524   22130096.6354
     -2496.1074      -1945.0024         52.0004         45.0004
 -26084032.04149 -20280893.45249  20375245.4964   20375248.4994   20375244.9754
     -1045.6374       -814.7834         56.0004         50.0004
 06  1 11 13 15  1.0000000  0  8G 3G18G27G19G16G22G21G15
 -22901268.68549 -17803266.07249  20692625.9694   20692628.7844   20692625.8134
      1528.5844       1191.1144         56.0004         50.0004
 -17720362.24249 -13760810.51148  22046849.4864   22046851.6454   22046850.0184
       836.5894        651.9004         53.0004         46.0004
  -2951854.96648  -2252834.11247  24974860.7844   24974865.7034   24974860.5744
       967.9354        754.2364         43.0004         37.0004
  -8398982.90748  -6503853.53448  23542664.7894   23542666.6584   23542663.4954
      2995.5854       2334.2264         47.0004         42.0004
 -20431016.27349 -15857785.82449  21176059.4314   21176061.6674   21176059.1544
     -2026.9134      -1579.4074         55.0004         49.0004
 -10546891.62849  -8209786.44248  22611864.3754   22611865.6114   22611864.9264
      2866.6574       2233.7774         51.0004         44.0004
 -15425172.37549 -11766463.98148  22130572.0234   22130574.1614   22130571.8754
     -2496.4364      -1945.2704         52.0004         45.0004
 -26082986.16649 -20280078.48549  20375444.5044   20375447.5144   20375444.0434
     -1046.2714       -815.2714         56.0004         50.0004
 06  1 11 13 15  2.0000000  0  8G 3G18G27G19G16G22G21G15
 -22902797.12249 -17804457.06149  20692335.0794   20692338.1684   20692335.0434
      1527.9354       1190.5904         56.0004         50.0004
 -17721198.62549 -13761462.23648  22046690.3264   22046692.1764   22046690.6184
       835.7624        651.2234         53.0004         46.0004
  -2952822.58747  -2253588.10147  24974676.4854   24974680.5624   24974676.3394
       967.5354        753.9244         41.0004         37.0004
  -8401978.61248  -6506187.84248  23542094.4804   23542096.4744   23542093.4244
      2995.5704       2334.2004         47.0004         42.0004
 -20428989.23149 -15856206.31049  21176445.2424   21176447.4364   21176445.2244
     -2027.6174      -1579.9644         55.0004         49.0004
 -10549758.26749  -8212020.18848  22611318.6004   22611319.9134   22611319.0054
      2866.2554       2233.4224         51.0004         44.0004
 -15422675.76949 -11764518.57548  22131047.0694   22131048.8894   22131046.7804
     -2496.8874      -1945.6244         52.0004         45.0004
 -26081939.64949 -20279263.01649  20375643.6504   20375646.5414   20375643.0494
     -1047.1074       -815.9364         56.0004         50.0004
 06  1 11 13 15  3.0000000  0  8G 3G18G27G19G16G22G21G15
 -22904325.30249 -17805647.85249  20692044.2574   20692046.9524   20692044.2084
      1528.5384       1191.0814         56.0004         50.0004
 -17722034.52549 -13762113.58548  22046531.2794   22046533.5114   22046531.2414
       836.1654        651.5544         53.0004         46.0004
  -2953789.78747  -2254341.76347  24974492.5314   24974496.5304   24974491.7264
       967.1994        753.6654         41.0004         37.0004
  -8404974.35248  -6508522.18148  23541524.4684   23541526.6864   23541523.3594
      2996.5054       2334.9374         47.0004         42.0004
 -20426961.79249 -15854626.49049  21176831.1094   21176833.2484   21176830.9724
     -2027.1484      -1579.5904         55.0004         49.0004
 -10552624.66549  -8214253.74948  22610773.0664   22610774.6494   22610774.3174
      2866.8584       2233.9224         51.0004         44.0004
 -15420178.98249 -11762573.02748  22131522.3154   22131524.2354   22131522.2164
     -2496.3364      -1945.1944         52.0004         45.0004
 -26080892.75849 -20278447.25849  20375842.8684   20375845.8964   20375842.4744
     -1046.6364       -815.5494         56.0004         50.0004
 06  1 11 13 15  4.0000000  0  8G 3G18G27G19G16G22G21G15
 -22905852.91049 -17806838.19449  20691753.5504   20691756.4104   20691753.5294
      1527.4564       1190.2314         56.0004         50.0004
 -17722869.63049 -13762764.31548  22046372.4774   22046374.4454   22046372.6204
       834.8194        650.5154         53.0004         46.0004
  -2954756.33848  -2255094.91847  24974308.7004   24974312.6554   24974308.1524
       966.8474        753.3934         42.0004         37.0004
  -8407969.79548  -6510856.28948  23540954.4124   23540957.2604   23540954.5604
      2995.4594       2334.1184         47.0004         43.0004
 -20424933.64049 -15853046.11149  21177217.0614   21177219.1814   21177216.7554
     -2028.3874      -1580.5614         55.0004         49.0004
 -10555490.52549  -8216486.88348  22610227.6274   22610230.5564   22610228.1804
      2865.6874       2232.9874         51.0004         44.0004
 -15417681.70549 -11760627.09848  22131997.5734   22131999.4434   22131996.9974
     -2497.3644      -1945.9944         52.0004         45.0004
 -26079845.16949 -20277630.95549  20376042.1994   20376045.2034   20376041.4724
     -1047.8694       -816.5194         56.0004         50.0004
 06  1 11 13 15  5.0000000  0  8G 3G18G27G19G16G22G21G15
 -22907380.25149 -17808028.33249  20691462.9344   20691466.2554   20691463.0114
      1526.8874       1189.7764         56.0004         50.0004
 -17723704.23849 -13763414.65948  22046213.7934   22046215.4924   22046213.8564
       833.9894        649.8484         53.0004         46.0004
  -2955722.43748  -2255847.72147  24974125.5754   24974129.2884   24974124.9644
       965.8834        752.6374         43.0004         37.0004
  -8410965.25248  -6513190.40748  23540384.3144   23540386.6724   23540383.5454
      2995.1294       2333.8584         47.0004         42.0004
 -20422905.08549 -15851465.42049  21177603.0374   21177605.5294   21177602.7924
     -2029.1514      -1581.1524         55.0004         49.0004
 -10558356.14349  -8218719.83548  22609682.3264   22609683.8294   22609683.9494
      2865.2314       2232.6194         51.0004         44.0004
 -15415184.25549 -11758681.03348  22132472.8054   22132474.7664   22132473.0534
     -2497.7544      -1946.3154         52.0004         45.0004
 -26078797.19149 -20276814.34949  20376241.5734   20376244.5994   20376241.1414
     -1048.5394       -817.0454         56.0004         50.0004
 06  1 11 13 15  6.0000000  0  8G 3G18G27G19G16G22G21G15
 -22908907.03349 -17809218.03149  20691172.2924   20691175.2134   20691172.3484
      1526.4034       1189.4074         56.0004         50.0004
 -17724538.06449 -13764064.39548  22046055.1654   22046056.7054   22046055.0284
       833.3244        649.3394         53.0004         46.0004
  -2956687.85048  -2256599.99047  24973942.2624   24973945.2884   24973941.0724
       964.7034        751.7224         42.0004         37.0004
  -8413960.45548  -6515524.32848  23539814.4004   23539816.9134   23539813.9914
      2995.2744       2333.9754         47.0004         42.0004
 -20420875.84649 -15849884.19449  21177989.1424   21177991.6004   21177989.0004
     -2029.6384      -1581.5324         55.0004         49.0004
 -10561221.22649  -8220952.37048  22609137.0514   22609139.1404   22609138.1564
      2864.7704       2232.2994         51.0004         44.0004
 -15412686.33349 -11756734.60148  22132948.1164   22132950.1384   22132947.7044
     -2498.2054      -1946.6524         52.0004         45.0004
 -26077748.53549 -20275997.21549  20376441.0404   20376444.0984   20376440.5824
     -1049.0404       -817.4324         56.0004         50.0004
 06  1 11 13 15  7.0000000  0  8G 3G18G27G19G16G22G21G15
 -22910433.58549 -17810407.55349  20690881.8064   20690884.8464   20690882.0724
      1526.3454       1189.3644         56.0004         50.0004
 -17725371.43849 -13764713.77948  22045896.5934   22045898.7414   22045896.3164
       832.9374        649.0504         53.0004         46.0004
  -2957652.90947  -2257351.98247  24973758.8524   24973761.3034   24973757.4084
       964.4894        751.5544         41.0004         37.0004
  -8416955.70849  -6517858.29348  23539244.4414   23539246.4204   23539243.8224
      2995.2704       2333.9784         48.0004         43.0004
 -20418846.23949 -15848302.68449  21178375.2554   21178377.7784   21178375.2054
     -2029.9504      -1581.7744         55.0004         49.0004
 -10564086.10749  -8223184.74548  22608591.9604   22608593.2374   22608592.1434
      2864.6374       2232.1644         51.0004         44.0004
 -15410188.27249 -11754788.06548  22133423.4954   22133425.9874   22133424.3044
     -2498.2594      -1946.6874         52.0004         45.0004
 -26076699.52949 -20275179.80849  20376640.5604   20376643.7364   20376640.3014
     -1049.2964       -817.6294         56.0004         50.0004
 06  1 11 13 15  8.0000000  0  8G 3G18G27G19G16G22G21G15
 -22911959.62249 -17811596.67249  20690591.3614   20690594.4134   20690591.5144
      1525.7494       1188.8764         56.0004         50.0004
 -17726204.06749 -13765362.57948  22045738.1754   22045740.0324   22045738.0644
       832.3304        648.5624         53.0004         46.0004
  -2958617.33648  -2258103.48347  24973575.0634   24973577.1614   24973573.3604
       964.0094        751.1764         42.0004         37.0004
  -8419950.72349  -6520192.06848  23538674.6434   23538676.6564   23538674.2614
      2994.6914       2333.5064         48.0004         43.0004
 -20416816.00649 -15846720.68449  21178761.4804   21178764.1734   21178761.4684
     -2030.3454      -1582.1034         55.0004         49.0004
 -10566950.51649  -8225416.75148  22608046.9684   22608049.4704   22608047.6834
      2864.1024       2231.7414         51.0004         44.0004
 -15407689.78949 -11752841.19448  22133898.9644   22133900.6844   22133898.0804
     -2498.7034      -1947.0594         52.0004         45.0004
 -26075649.89049 -20274361.90749  20376840.2784   20376843.5174   20376840.0014
     -1049.9944       -818.1904         56.0004         50.0004
 06  1 11 13 15  9.0000000  0  8G 3G18G27G19G16G22G21G15
 -22913485.26949 -17812785.48749  20690301.0934   20690304.1034   20690301.1194
      1525.0164       1188.3134         56.0004         50.0004
 -17727036.08749 -13766010.90548  22045579.7944   22045581.7424   22045579.4334
       831.2994        647.7534         53.0004         46.0004
  -2959581.23748  -2258854.57247  24973391.8174   24973393.0594   24973389.7104
       963.4464        750.7324         42.0004         37.0004
  -8422945.66448  -6522525.78648  23538104.8334   23538106.9174   23538103.9904
      2994.6014       2333.4514         47.0004         42.0004
 -20414785.24949 -15845138.27749  21179147.8484   21179150.4624   21179147.8434
     -2031.4064      -1582.9234         55.0004         49.0004
 -10569814.55849  -8227648.47248  22607502.0154   22607504.3524   22607502.6914
      2863.3674       2231.1964         51.0004         44.0004
 -15405191.01349 -11750894.09548  22134374.3854   22134376.6024   22134373.7434
     -2499.3444      -1947.5474         52.0004         45.0004
 -26074599.73349 -20273543.60349  20377040.0354   20377043.4744   20377039.6084
     -1050.8254       -818.8274         56.0004         50.0004
 06  1 11 13 15 10.0000000  0  8G 3G18G27G19G16G22G21G15
 -22915010.49849 -17813973.97849  20690010.8944   20690013.8304   20690010.9114
      1524.8214       1188.1674         56.0004         50.0004
 -17727867.46849 -13766658.73548  22045421.5414   22045423.1874   22045420.9644
       830.8814        647.4284         53.0004         46.0004
  -2960544.53048  -2259605.18947  24973208.3424   24973209.3964   24973206.9484
       961.5504        749.2544         42.0004         37.0004
  -8425940.46648  -6524859.39548  23537535.1014   23537536.8884   23537535.0764
      2994.5254       2333.3954         47.0004         43.0004
 -20412753.95149 -15843555.44649  21179534.2264   21179537.3684   21179534.2554
     -2031.7654      -1583.2014         54.0004         49.0004
 -10572678.21849  -8229879.89448  22606957.1724   22606958.9364   22606957.2524
      2863.2334       2231.0724         51.0004         44.0004
 -15402691.91349 -11748946.74548  22134849.8754   22134851.8524   22134849.9194
     -2499.3844      -1947.5704         52.0004         45.0004
 -26073549.04249 -20272724.88449  20377239.9374   20377243.2174   20377239.9114
     -1051.0934       -819.0334         56.0004         50.0004
 06  1 11 13 15 11.0000000  0  8G 3G18G27G19G16G22G21G15
 -22916535.36449 -17815162.18749  20689720.7544   20689723.9134   20689720.8984
      1524.8104       1188.1664         56.0004         50.0004
 -17728698.25149 -13767306.09548  22045263.4114   22045265.3924   22045263.2994
       830.6484        647.2654         53.0004         46.0004
  -2961507.43648  -2260355.50447  24973024.9414   24973026.5894   24973023.0604
       962.8504        750.2744         42.0004         37.0004
  -8428935.18848  -6527192.94048  23536965.4694   23536966.5814   23536964.4574
      2994.8694       2333.6644         47.0004         43.0004
 -20410722.15149 -15841972.22449  21179920.6834   21179923.8384   21179921.1264
     -2031.8654      -1583.2754         55.0004         49.0004
 -10575541.53049  -8232111.04848  22606412.4474   22606414.6624   22606412.9474
      2863.1834       2231.0604         51.0004         44.0004
 -15400192.53649 -11746999.18148  22135325.4924   22135327.5794   22135325.2594
     -2499.3584      -1947.5584         52.0004         45.0004
 -26072497.86149 -20271905.78149  20377439.9834   20377443.2854   20377439.7754
     -1051.3724       -819.2504         56.0004         50.0004
 06  1 11 13 15 12.0000000  0  8G 3G18G27G19G16G22G21G15
 -22918059.76949 -17816350.03549  20689430.6774   20689433.5874   20689430.8034
      1524.3514       1187.8154         56.0004         50.0004
 -17729528.34549 -13767952.92048  22045105.5484   22045107.6414   22045105.5424
       829.8994        646.6864         53.0004         46.0004
  -2962469.69348  -2261105.31247  24972841.7434   24972843.3424   24972840.3814
       963.1504        750.5084         42.0004         37.0004
  -8431929.72949  -6529526.34848  23536395.9004   23536397.1924   23536394.3364
      2994.4054       2333.3134         48.0004         43.0004
 -20408689.75049 -15840388.53649  21180307.3274   21180310.4724   21180307.8234
     -2032.6544      -1583.8804         55.0004         49.0004
 -10578404.41149  -8234341.86148  22605867.8744   22605869.7414   22605868.0564
      2862.7574       2230.7074         51.0004         44.0004
 -15397692.77349 -11745051.31148  22135801.1264   22135803.6284   22135800.9764
     -2499.8414      -1947.9064         52.0004         45.0004
 -26071446.09949 -20271086.22549  20377640.1494   20377643.2714   20377639.9534
     -1051.8814       -819.6434         56.0004         50.0004
 06  1 11 13 15 13.0000000  0  8G 3G18G27G19G16G22G21G15
 -22919583.77949 -17817537.57449  20689140.7274   20689143.6984   20689140.6624
      1523.7094       1187.3034         56.0004         50.0004
 -17730357.82949 -13768599.26648  22044947.7424   22044949.0554   22044947.7564
       829.1944        646.1304         53.0004         46.0004
  -2963431.39748  -2261854.69147  24972658.3704   24972660.4774   24972656.8194
       961.9334        749.5574         42.0004         37.0004
  -8434924.16748  -6531859.67648  23535826.1594   23535826.2004   23535824.3024
      2994.0594       2333.0374         47.0004         43.0004
 -20406656.84749 -15838804.45649  21180694.1584   21180697.2404   21180694.3674
     -2033.2144      -1584.3234         55.0004         49.0004
 -10581266.91849  -8236572.38348  22605323.3734   22605324.6134   22605323.3354
      2862.3284       2230.3774         51.0004         44.0004
 -15395192.73149 -11743103.22848  22136276.7944   22136278.4454   22136276.8534
     -2500.1624      -1948.1834         52.0004         45.0004
 -26070393.82549 -20270266.27149  20377840.4504   20377843.7564   20377840.0114
     -1052.5434       -820.1654         56.0004         50.0004
 06  1 11 13 15 14.0000000  0  8G 3G18G27G19G16G22G21G15
 -22921107.38549 -17818724.80149  20688850.8094   20688853.5784   20688850.7224
      1524.0354       1187.5644         56.0004         50.0004
 -17731186.67049 -13769245.11548  22044790.1274   22044791.9064   22044789.6444
       829.0204        645.9854         53.0004         46.0004
  -2964392.56848  -2262603.65547  24972475.3104   24972478.2564   24972474.5044
       961.7874        749.4464         42.0004         37.0004
  -8437918.50649  -6534192.92848  23535256.3754   23535257.4344   23535255.3604
      2994.8984       2333.6894         48.0004         43.0004
 -20404623.39649 -15837219.94949  21181081.1574   21181084.3064   21181081.6504
     -2033.1444      -1584.2554         55.0004         49.0004
 -10584129.05249  -8238802.61448  22604778.8574   22604780.7114   22604778.9494
      2862.4564       2230.4944         51.0004         44.0004
 -15392692.34349 -11741154.87348  22136752.5384   22136754.7944   22136752.8134
     -2500.2164      -1948.2094         52.0004         45.0004
 -26069341.01549 -20269445.90149  20378040.8094   20378043.8754   20378040.7434
     -1052.6284       -820.2274         56.0004         50.0004
 06  1 11 13 15 15.0000000  0  8G 3G18G27G19G16G22G21G15
 -22922630.67049 -17819911.77649  20688560.9944   20688563.9594   20688560.9404
      1522.6794       1186.4904         56.0004         50.0004
 -17732014.98149 -13769890.55248  22044632.5764   22044634.4604   22044631.6244
       827.6184        644.8874         53.0004         46.0004
  -2965353.29848  -2263352.27347  24972292.0434   24972295.0784   24972291.1054
       959.5394        747.6934         42.0004         37.0004
  -8440912.79848  -6536526.14148  23534686.7624   23534687.2374   23534685.7324
      2993.7644       2332.7934         47.0004         43.0004
 -20402589.50049 -15835635.09549  21181468.2624   21181471.1134   21181468.8004
     -2034.6174      -1585.4214         55.0004         49.0004
 -10586990.89949  -8241032.62448  22604234.4114   22604235.8694   22604234.6804
      2861.2584       2229.5574         51.0004         44.0004
 -15390191.76049 -11739206.37048  22137228.2854   22137230.5574   22137227.9994
     -2501.1724      -1948.9704         52.0004         45.0004
 -26068287.77749 -20268625.19449  20378241.1954   20378244.4394   20378240.7464
     -1053.8964       -821.2284         56.0004         50.0004
 06  1 11 13 15 16.0000000  0  8G 3G18G27G19G16G22G21G15
 -22924153.42949 -17821098.34149  20688271.2164   20688274.0364   20688271.2384
      1522.5594       1186.4124         56.0004         50.0004
 -17732842.53749 -13770535.40448  22044475.1664   22044476.8214   22044475.0314
       827.3424        644.6804         53.0004         46.0004
  -2966313.35948  -2264100.37047  24972109.4264   24972113.2594   24972109.4884
       959.3144        747.5074         42.0004         37.0004
  -8443906.88248  -6538859.19148  23534116.9604   23534118.1664   23534115.3924
      2994.4124       2333.3004         47.0004         42.0004
 -20400554.94949 -15834049.73049  21181855.5794   21181858.3244   21181855.9904
     -2034.8934      -1585.6294         55.0004         49.0004
 -10589852.25249  -8243262.24848  22603690.0084   22603691.9664   22603689.2114
      2861.2064       2229.5214         51.0004         44.0004
 -15387690.72349 -11737257.51048  22137704.1514   22137706.7904   22137704.6604
     -2501.1264      -1948.9364         52.0004         45.0004
 -26067233.88349 -20267803.98049  20378441.7494   20378445.0484   20378441.4204
     -1054.1564       -821.4194         55.0004         50.0004
 06  1 11 13 15 17.0000000  0  8G 3G18G27G19G16G22G21G15
 -22925675.87149 -17822284.66249  20687981.4624   20687984.5704   20687981.4194
      1522.3674       1186.2674         56.0004         50.0004
 -17733669.54749 -13771179.82748  22044317.7254   22044319.2614   22044316.9784
       826.8624        644.3174         53.0004         46.0004
  -2967273.00148  -2264848.14447  24971926.6904   24971930.3514   24971927.6554
       959.3404        747.5374         42.0004         37.0004
  -8446900.89848  -6541192.19048  23533546.9844   23533547.4684   23533545.8494
      2994.0464       2333.0344         47.0004         42.0004
 -20398519.95649 -15832464.02249  21182242.9284   21182246.0224   21182243.1504
     -2035.1214      -1585.8064         55.0004         49.0004
 -10592713.31449  -8245491.65048  22603145.7664   22603147.1834   22603145.0504
      2860.9954       2229.3394         51.0004         44.0004
 -15385189.45949 -11735308.47148  22138180.0544   22138182.5944   22138180.5804
     -2501.3434      -1949.0914         52.0004         45.0004
 -26066179.54549 -20266982.41849  20378642.3844   20378645.5204   20378642.1614
     -1054.4074       -821.6164         56.0004         50.0004
 06  1 11 13 15 18.0000000  0  8G 3G18G27G19G16G22G21G15
 -22927197.87649 -17823470.63649  20687691.8204   20687694.7494   20687691.8034
      1521.6154       1185.6664         56.0004         50.0004
 -17734495.90349 -13771823.74148  22044160.4144   22044162.4504   22044160.4494
       825.8644        643.5294         53.0004         46.0004
  -2968232.04148  -2265595.45147  24971743.5324   24971748.1034   24971744.0764
       957.1464        745.8304         42.0004         37.0004
  -8449894.79148  -6543525.09248  23532977.1964   23532978.2744   23532975.8994
      2993.7774       2332.8054         47.0004         42.0004
 -20396484.38549 -15830877.86349  21182630.3644   21182632.9104   21182630.5754
     -2036.0614      -1586.5464         55.0004         49.0004
 -10595573.96249  -8247720.72648  22602601.4964   22602601.3474   22602601.3584
      2860.2224       2228.7224         51.0004         44.0004
 -15382687.85249 -11733359.16948  22138656.1244   22138658.5734   22138656.6564
     -2502.0794      -1949.6904         52.0004         45.0004
 -26065124.66049 -20266160.42849  20378843.1174   20378846.3844   20378843.0084
     -1055.3364       -822.3384         56.0004         50.0004
 06  1 11 13 15 19.0000000  0  8G 3G18G27G19G16G22G21G15
 -22928719.46349 -17824656.28849  20687402.2164   20687405.2494   20687402.0694
      1521.3614       1185.4594         56.0004         50.0004
 -17735321.62349 -13772467.15748  22044003.1364   22044004.7924   22044002.6424
       825.5824        643.2934         53.0004         46.0004
  -2969190.55447  -2266342.34347  24971560.7084   24971565.6944   24971561.3954
       958.5894        746.9604         41.0004         37.0004
  -8452888.55148  -6545857.88648  23532407.2564   23532408.7134   23532405.3854
      2993.8124       2332.8264         47.0004         42.0004
 -20394448.27449 -15829291.28449  21183017.9394   21183020.6084   21183017.6074
     -2036.4714      -1586.8734         55.0004         49.0004
 -10598434.23349  -8249949.50548  22602057.2404   22602057.5184   22602056.7974
      2860.1134       2228.6494         51.0004         44.0004
 -15380185.92049 -11731409.61148  22139132.2734   22139134.7224   22139132.4374
     -2502.1324      -1949.7204         52.0004         45.0004
 -26064069.23449 -20265338.01849  20379043.9794   20379047.1794   20379043.7214
     -1055.6984       -822.6304         56.0004         50.0004
 06  1 11 13 15 20.0000000  0  8G 3G18G27G19G16G22G21G15
 -22930240.67149 -17825841.64449  20687112.6084   20687115.5084   20687112.8304
      1521.6594       1185.7144         56.0004         50.0004
 -17736146.74049 -13773110.10348  22043846.0064   22043847.7944   22043845.9014
       825.4484        643.2044         53.0004         46.0004
  -2970148.57547  -2267088.85147  24971378.3524   24971383.3054   24971379.2374
       958.7094        747.0384         41.0004         37.0004
  -8455882.20749  -6548190.59848  23531837.3164   23531839.2714   23531836.2024
      2994.2484       2333.1794         48.0004         42.0004
 -20392411.66549 -15827704.31749  21183405.6094   21183408.2004   21183405.2864
     -2036.1564      -1586.6044         55.0004         49.0004
 -10601294.14749  -8252178.00248  22601512.9384   22601512.6604   22601511.9364
      2860.3854       2228.8744         51.0004         44.0004
 -15377683.69749 -11729459.82648  22139608.4814   22139610.8444   22139609.3424
     -2501.7214      -1949.3884         52.0004         45.0004
 -26063013.30249 -20264515.21349  20379244.9474   20379248.0994   20379244.8384
     -1055.5984       -822.5394         56.0004         50.0004
 06  1 11 13 15 21.0000000  0  8G 3G18G27G19G16G22G21G15
 -22931761.38349 -17827026.61449  20686823.1494   20686826.4234   20686823.2884
      1520.7094       1184.9614         56.0004         50.0004
 -17736971.13549 -13773752.48848  22043689.0174   22043690.6274   22043688.7154
       824.2814        642.2824         53.0004         46.0004
  -2971105.92148  -2267834.83547  24971196.2014   24971201.0254   24971196.9634
       957.4184        746.0394         42.0004         37.0004
  -8458875.67248  -6550523.16648  23531267.7074   23531269.8634   23531266.7744
      2993.8054       2332.8134         47.0004         42.0004
 -20390374.41349 -15826116.84849  21183793.3754   21183795.9544   21183793.3164
     -2037.1794      -1587.4134         55.0004         49.0004
 -10604153.59449  -8254406.13948  22600968.7514   22600969.7364   22600968.5374
      2859.4624       2228.1404         51.0004         44.0004
 -15375181.06949 -11727509.72748  22140084.7524   22140087.1274   22140084.8974
     -2502.5104      -1950.0114         52.0004         45.0004
 -26061956.76449 -20263691.93549  20379445.9994   20379449.1054   20379445.5204
     -1056.6094       -823.3354         56.0004         50.0004
 06  1 11 13 15 22.0000000  0  8G 3G18G27G19G16G22G21G15
 -22933281.77149 -17828211.33249  20686533.7634   20686536.9754   20686534.1684
      1520.6944       1184.9664         56.0004         50.0004
 -17737794.98049 -13774394.44648  22043532.1754   22043534.8954   22043532.1904
       824.0694        642.1274         53.0004         46.0004
  -2972062.82348  -2268580.47347  24971014.1124   24971019.3294   24971015.2894
       957.4824        746.0884         42.0004         37.0004
  -8461869.09348  -6552855.70548  23530698.0394   23530699.0354   23530697.9514
      2994.1734       2333.1384         47.0004         42.0004
 -20388336.71749 -15824529.03349  21184181.2244   21184183.5024   21184180.8004
     -2037.4884      -1587.6414         55.0004         49.0004
 -10607012.74449  -8256634.04948  22600424.5154   22600425.3434   22600424.4674
      2859.5044       2228.2074         51.0004         44.0004
 -15372678.21049 -11725559.44648  22140561.1594   22140562.9694   22140561.1264
     -2502.4264      -1949.9294         52.0004         45.0004
 -26060899.77249 -20262868.30549  20379647.1854   20379650.4674   20379646.9034
     -1056.7194       -823.4064         56.0004         50.0004
 06  1 11 13 15 23.0000000  0  8G 3G18G27G19G16G22G21G15
 -22934801.72749 -17829395.71249  20686244.4934   20686247.7284   20686244.7244
      1519.5314       1184.0524         56.0004         50.0004
 -17738618.16949 -13775035.89048  22043375.4764   22043377.8894   22043375.7134
       822.7034        641.0634         53.0004         46.0004
  -2973019.18248  -2269325.68747  24970831.9334   24970837.0174   24970832.6204
       955.5704        744.5894         43.0004         37.0004
  -8464862.35348  -6555188.11448  23530128.3714   23530130.0884   23530127.0544
      2992.9584       2332.1734         47.0004         42.0004
 -20386298.46649 -15822940.78749  21184569.1764   21184571.6824   21184568.9814
     -2038.8114      -1588.6864         55.0004         49.0004
 -10609871.49649  -8258861.65148  22599880.1724   22599882.1784   22599879.6354
      2858.3594       2227.3074         51.0004         44.0004
 -15370175.01149 -11723608.90248  22141037.6404   22141040.2774   22141037.8684
     -2503.4814      -1950.7584         52.0004         45.0004
 -26059842.23249 -20262044.24649  20379848.4634   20379851.6874   20379848.2584
     -1058.0134       -824.4284         56.0004         50.0004
 06  1 11 13 15 24.0000000  0  8G 3G18G27G19G16G22G21G15
 -22936321.20549 -17830579.72149  20685955.3344   20685958.6494   20685955.4904
      1518.5904       1183.3034         56.0004         50.0004
 -17739440.65349 -13775676.78548  22043218.8294   22043221.0224   22043218.9044
       821.3694        640.0134         53.0004         46.0004
  -2973974.92047  -2270070.41447  24970650.1034   24970655.1034   24970651.0394
       954.7244        743.9384         41.0004         37.0004
  -8467855.46048  -6557520.40848  23529558.6154   23529560.3864   23529557.6784
      2992.3544       2331.6964         47.0004         42.0004
 -20384259.60649 -15821352.06549  21184957.1854   21184959.2644   21184956.7974
     -2039.8304      -1589.4874         55.0004         49.0004
 -10612729.80149  -8261088.89848  22599335.8974   22599337.8834   22599336.5944
      2857.4954       2226.6024         51.0004         44.0004
 -15367671.42649 -11721658.05848  22141514.1334   22141516.2884   22141513.7904
     -2504.4724      -1951.5624         52.0004         45.0004
 -26058784.09349 -20261219.72149  20380049.7714   20380052.6544   20380049.3804
     -1059.1754       -825.3384         56.0004         50.0004
 06  1 11 13 15 25.0000000  0  8G 3G18G27G19G16G22G21G15
 -22937840.36949 -17831763.48549  20685666.2644   20685669.4054   20685666.2144
      1518.9094       1183.5584         56.0004         50.0004
 -17740262.61549 -13776317.27748  22043062.2944   22043064.8824   22043062.1844
       821.7854        640.3554         52.0004         46.0004
  -2974930.20447  -2270814.78947  24970468.3504   24970472.7194   24970469.2824
       954.5874        743.8164         41.0004         37.0004
  -8470848.51148  -6559852.65548  23528989.0824   23528989.9354   23528988.3844
      2992.7114       2331.9884         47.0004         42.0004
 -20382220.30849 -15819763.00449  21185345.3054   21185347.4614   21185344.7674
     -2039.5234      -1589.2454         55.0004         49.0004
 -10615587.81849  -8263315.92748  22598791.7034   22598793.9494   22598792.2484
      2857.9144       2226.9264         51.0004         44.0004
 -15365167.62549 -11719707.04648  22141990.6094   22141992.4524   22141990.1614
     -2503.8464      -1951.0574         52.0004         45.0004
 -26057725.52249 -20260394.86249  20380251.1694   20380254.3084   20380250.8594
     -1058.7824       -825.0294         56.0004         50.0004
 06  1 11 13 15 26.0000000  0  8G 3G18G27G19G16G22G21G15
 -22939359.11249 -17832946.92149  20685377.2474   20685380.6274   20685377.3844
      1518.4134       1183.1904         56.0004         50.0004
 -17741083.91949 -13776957.25548  22042905.9824   22042908.4264   22042905.8954
       820.8954        639.6664         53.0004         46.0004
  -2975884.94047  -2271558.73947  24970286.3894   24970291.1154   24970287.1364
       954.3324        743.6364         41.0004         37.0004
  -8473841.45348  -6562184.81648  23528419.4854   23528421.2124   23528419.1044
      2992.6904       2331.9744         47.0004         42.0004
 -20380180.45749 -15818173.51149  21185733.4604   21185735.3764   21185732.8904
     -2040.2754      -1589.8174         55.0004         49.0004
 -10618445.43349  -8265542.64348  22598247.5774   22598249.9034   22598248.4074
      2857.2194       2226.3974         50.0004         44.0004
 -15362663.48949 -11717755.77148  22142467.2394   22142469.6334   22142467.2194
     -2504.3204      -1951.4094         52.0004         45.0004
 -26056666.40249 -20259569.57449  20380452.6904   20380455.7414   20380452.5024
     -1059.5174       -825.5964         56.0004         50.0004
 06  1 11 13 15 27.0000000  0  8G 3G18G27G19G16G22G21G15
 -22940877.49749 -17834130.07949  20685088.3064   20685091.6874   20685088.3384
      1518.1334       1182.9524         56.0004         50.0004
 -17741904.63349 -13777596.77248  22042749.8584   22042752.4794   22042749.5534
       820.4384        639.3104         53.0004         46.0004
  -2976839.16247  -2272302.28947  24970104.7844   24970109.8944   24970106.2674
       953.4914        742.9904         40.0004         37.0004
  -8476834.31648  -6564516.91848  23527849.8994   23527850.9444   23527849.6344
      2992.8404       2332.0864         47.0004         42.0004
 -20378140.12349 -15816583.64349  21186121.7264   21186123.8444   21186121.3494
     -2040.4884      -1589.9874         55.0004         49.0004
 -10621302.72549  -8267769.10348  22597703.4664   22597706.2794   22597705.1874
      2857.1404       2226.3474         51.0004         44.0004
 -15360159.08449 -11715804.28448  22142943.8634   22142945.8274   22142943.2984
     -2504.5144      -1951.5684         52.0004         45.0004
 -26055606.81249 -20258743.91949  20380654.3414   20380657.5294   20380653.9194
     -1059.8134       -825.8344         56.0004         50.0004
 06  1 11 13 15 28.0000000  0  8G 3G18G27G19G16G22G21G15
 -22942395.35549 -17835312.82449  20684799.4074   20684802.7844   20684799.5534
      1517.4304       1182.4064         56.0004         50.0004
 -17742724.59349 -13778235.70048  22042593.7424   22042596.0744   22042594.8044
       819.4014        638.4784         53.0004         46.0004
  -2977792.75548  -2273045.34647  24969923.0094   24969927.6974   24969924.7884
       953.1314        742.6944         42.0004         37.0004
  -8479826.93248  -6566848.82248  23527280.4734   23527282.1694   23527279.8284
      2992.3014       2331.6564         47.0004         42.0004
 -20376099.11949 -15814993.24949  21186510.0654   21186512.1454   21186509.8044
     -2041.5054      -1590.7784         55.0004         49.0004
 -10624159.51449  -8269995.17248  22597159.5654   22597162.8464   22597161.1834
      2856.2714       2225.6494         50.0004         44.0004
 -15357654.21849 -11713852.44048  22143420.6114   22143421.8644   22143419.9464
     -2505.3044      -1952.2014         52.0004         45.0004
 -26054546.56449 -20257917.75049  20380856.0624   20380859.3744   20380855.6474
     -1060.7374       -826.5554         56.0004         50.0004
 06  1 11 13 15 29.0000000  0  8G 3G18G27G19G16G22G21G15
 -22943912.90349 -17836495.32649  20684510.5584   20684514.1934   20684510.9244
      1517.1884       1182.2144         56.0004         50.0004
 -17743544.02449 -13778874.21948  22042437.8134   22042440.0674   22042437.8014
       819.0354        638.2134         53.0004         46.0004
  -2978745.90047  -2273788.05647  24969741.2644   24969745.3714   24969743.8354
       952.2984        742.0484         40.0004         37.0004
  -8482819.53648  -6569180.71948  23526710.9544   23526711.4504   23526710.1074
      2992.5204       2331.8344         46.0004         42.0004
 -20374057.68549 -15813402.52249  21186898.5564   21186900.6284   21186897.9714
     -2041.9224      -1591.1154         55.0004         49.0004
 -10627016.02049  -8272221.01648  22596615.7864   22596619.1084   22596617.1594
      2856.0934       2225.5354         50.0004         44.0004
 -15355149.13249 -11711900.42748  22143897.2754   22143899.1104   22143896.6924
     -2505.3814      -1952.2414         52.0004         45.0004
 -26053485.88649 -20257091.24949  20381057.8824   20381061.0434   20381057.5094
     -1061.0894       -826.8244         55.0004         50.0004
 06  1 11 13 15 30.0000000  0  8G 3G18G27G19G16G22G21G15
 -22945430.03749 -17837677.50749  20684221.7774   20684225.0404   20684221.9424
      1516.8924       1181.9984         56.0004         50.0004
 -17744362.80849 -13779512.23248  22042282.1124   22042284.7544   22042282.4864
       818.3944        637.7084         53.0004         46.0004
  -2979698.51048  -2274530.34947  24969559.9554   24969564.4674   24969561.9234
       952.5274        742.2254         42.0004         37.0004
  -8485812.00548  -6571512.51348  23526141.4624   23526142.7504   23526140.6444
      2992.2414       2331.6274         46.0004         42.0004
 -20372015.70749 -15811811.37249  21187287.1004   21187289.4324   21187286.9574
     -2042.4014      -1591.4754         55.0004         49.0004
 -10629872.14649  -8274446.57548  22596072.0744   22596076.2584   22596074.5984
      2855.8954       2225.3794         50.0004         44.0004
 -15352643.73049 -11709948.16448  22144373.9654   22144375.1894   22144374.1414
     -2505.6904      -1952.4794         52.0004         45.0004
 -26052424.67549 -20256264.33249  20381259.7494   20381263.0314   20381259.4444
     -1061.6014       -827.2174         56.0004         50.0004
 06  1 11 13 15 31.0000000  0  8G 3G18G27G19G16G22G21G15
 -22946946.78349 -17838859.38949  20683933.1084   20683936.7134   20683933.5584
      1516.8154       1181.9414         55.0004         50.0004
 -17745180.99749 -13780149.78248  22042126.4524   22042128.6564   22042126.2744
       818.2104        637.5744         53.0004         46.0004
  -2980650.59548  -2275272.23247  24969378.9404   24969383.7394   24969380.8454
       951.7864        741.6474         42.0004         37.0004
  -8488804.39848  -6573844.25448  23525571.9894   23525571.5754   23525570.9274
      2992.8124       2332.0654         47.0004         42.0004
 -20369973.21649 -15810219.82349  21187675.7524   21187677.7714   21187675.4294
     -2042.5144      -1591.5604         55.0004         49.0004
 -10632727.90849  -8276671.84848  22595528.5444   22595532.2424   22595530.4064
      2855.8274       2225.3324         50.0004         44.0004
 -15350138.03749 -11707995.67548  22144850.7284   22144852.7714   22144849.7764
     -2505.5424      -1952.3774         52.0004         45.0004
 -26051362.96249 -20255437.02549  20381461.7194   20381465.2854   20381461.6434
     -1061.6664       -827.2664         56.0004         50.0004
 06  1 11 13 15 32.0000000  0  8G 3G18G27G19G16G22G21G15
 -22948463.08849 -17840040.92649  20683644.5734   20683648.3294   20683644.9974
      1515.7204       1181.0734         56.0004         50.0004
 -17745998.51849 -13780786.81248  22041970.9684   22041973.2924   22041971.2804
       816.8874        636.5274         53.0004         46.0004
  -2981602.07848  -2276013.64747  24969197.8994   24969203.9224   24969199.3144
       950.2774        740.4764         42.0004         37.0004
  -8491796.61148  -6576175.85248  23525002.3344   23525003.2364   23525002.4224
      2991.5354       2331.0474         47.0004         42.0004
 -20367930.15749 -15808627.82749  21188064.5754   21188066.7464   21188064.3204
     -2043.6994      -1592.4964         55.0004         49.0004
 -10635583.25949  -8278896.79948  22594985.3024   22594988.6064   22594986.9454
      2854.8694       2224.5784         51.0004         44.0004
 -15347632.00149 -11706042.91948  22145327.4484   22145329.3854   22145327.2614
     -2506.4934      -1953.1134         52.0004         45.0004
 -26050300.68449 -20254609.27649  20381663.7974   20381667.3234   20381663.7014
     -1062.8804       -828.2264         56.0004         50.0004
 06  1 11 13 15 33.0000000  0  8G 3G18G27G19G16G22G21G15
 -22949978.96849 -17841222.12949  20683356.0704   20683359.5984   20683356.2924
      1515.9824       1181.2904         55.0004         50.0004
 -17746815.38349 -13781423.32748  22041815.6014   22041817.8224   22041815.4204
       816.8514        636.5114         53.0004         46.0004
  -2982553.05147  -2276754.66547  24969016.8254   24969023.2484   24969018.2854
       950.6114        740.7464         41.0004         37.0004
  -8494788.70948  -6578507.35848  23524432.7834   23524433.8324   23524432.1594
      2992.3034       2331.6644         47.0004         42.0004
 -20365886.53849 -15807035.39549  21188453.4214   21188455.5614   21188453.2354
     -2043.4704      -1592.3094         55.0004         49.0004
 -10638438.20349  -8281121.43148  22594442.2584   22594445.2914   22594444.6254
      2854.9614       2224.6544         51.0004         44.0004
 -15345125.62149 -11704089.89948  22145804.3094   22145805.8194   22145805.0084
     -2506.1984      -1952.8744         52.0004         45.0004
 -26049237.85449 -20253781.09749  20381866.0504   20381869.4474   20381866.0444
     -1062.7964       -828.1504         56.0004         50.0004
 06  1 11 13 15 34.0000000  0  8G 3G18G27G19G16G22G21G15
 -22951494.43449 -17842403.01149  20683067.7144   20683071.4544   20683068.1404
      1515.1594       1180.6404         56.0004         50.0004
 -17747631.61549 -13782059.35248  22041660.3164   22041662.4214   22041659.8584
       815.7724        635.6584         53.0004         46.0004
  -2983503.45247  -2277495.23647  24968836.1584   24968842.1954   24968838.1244
       950.2014        740.4184         41.0004         37.0004
  -8497780.67948  -6580838.75848  23523863.3394   23523864.5304   23523864.1494
      2991.4714       2331.0194         47.0004         42.0004
 -20363842.37949 -15805442.54349  21188842.3334   21188844.7244   21188841.8984
     -2044.5654      -1593.1694         55.0004         49.0004
 -10641292.77549  -8283345.77148  22593899.2714   22593902.9954   22593900.9804
      2854.3414       2224.1774         51.0004         44.0004
 -15342618.92449 -11702136.62548  22146281.2094   22146282.8174   22146281.0224
     -2506.9774      -1953.5034         52.0004         45.0004
 -26048174.49749 -20252952.50649  20382068.3324   20382071.9384   20382068.3494
     -1063.7844       -828.9264         56.0004         50.0004
 06  1 11 13 15 35.0000000  0  8G 3G18G27G19G16G22G21G15
 -22953009.44749 -17843583.53949  20682779.4404   20682783.1924   20682779.6674
      1514.3894       1180.0394         56.0004         50.0004
 -17748447.17849 -13782694.85248  22041505.2134   22041507.5164   22041504.7484
       814.7674        634.8684         53.0004         46.0004
  -2984453.28247  -2278235.36247  24968655.7284   24968661.7804   24968657.6554
       949.8184        740.1164         39.0004         37.0004
  -8500772.49448  -6583170.03948  23523294.1024   23523294.9014   23523294.5654
      2991.2974       2330.8714         47.0004         42.0004
 -20361797.64349 -15803849.24049  21189231.3014   21189233.8394   21189231.0074
     -2045.4714      -1593.8764         55.0004         49.0004
 -10644146.91849  -8285569.77948  22593356.3014   22593359.2654   22593358.1814
      2853.5394       2223.5414         50.0004         44.0004
 -15340111.87449 -11700183.07848  22146758.2394   22146760.0154   22146758.9204
     -2507.5904      -1953.9724         52.0004         45.0004
 -26047110.57149 -20252123.47449  20382270.7924   20382274.2094   20382270.8354
     -1064.6454       -829.5964         56.0004         50.0004
 06  1 11 13 15 36.0000000  0  8G 3G18G27G19G16G22G21G15
 -22954524.21849 -17844763.88249  20682491.2624   20682494.9934   20682491.6654
      1514.1954       1179.8924         56.0004         50.0004
 -17749262.27149 -13783329.99148  22041350.1424   22041352.1334   22041349.8844
       814.4404        634.6244         53.0004         46.0004
  -2985402.70747  -2278975.17047  24968474.9544   24968480.9364   24968476.5384
       948.2164        738.8654         41.0004         37.0004
  -8503764.34548  -6585501.35548  23522724.9544   23522726.8174   23522725.8074
      2991.3854       2330.9694         47.0004         42.0004
 -20359752.53049 -15802255.64749  21189620.3634   21189622.8614   21189620.3304
     -2045.8264      -1594.1464         55.0004         49.0004
 -10647000.84949  -8287793.62048  22592813.4404   22592816.1904   22592814.5394
      2853.2034       2223.2764         51.0004         44.0004
 -15337604.67549 -11698229.42248  22147235.2624   22147236.1734   22147235.6444
     -2507.6554      -1954.0264         52.0004         45.0004
 -26046046.27749 -20251294.15449  20382473.2434   20382477.0364   20382473.4074
     -1064.9664       -829.8444         56.0004         50.0004
 06  1 11 13 15 37.0000000  0  8G 3G18G27G19G16G22G21G15
 -22956038.42449 -17845943.78249  20682203.1564   20682206.6574   20682203.4794
      1513.4954       1179.3304         56.0004         50.0004
 -17750076.58449 -13783964.52048  22041195.1494   22041197.5774   22041194.7504
       813.5934        633.9494         53.0004         46.0004
  -2986351.48247  -2279714.47647  24968294.4994   24968300.9384   24968295.6304
       947.2524        738.1124         41.0004         37.0004
  -8506755.91849  -6587832.45048  23522155.9724   23522156.4744   23522155.7854
      2991.0374       2330.6674         48.0004         42.0004
 -20357706.73349 -15800661.52149  21190009.5394   21190012.1304   21190009.5824
     -2046.5464      -1594.7214         55.0004         49.0004
 -10649854.24949  -8290017.04448  22592270.7144   22592272.3704   22592271.3914
      2852.6104       2222.8184         51.0004         44.0004
 -15335097.01349 -11696275.40048  22147712.3484   22147714.3354   22147713.1204
     -2508.3234      -1954.5594         52.0004         45.0004
 -26044981.30949 -20250464.30849  20382675.8454   20382679.4234   20382676.0124
     -1065.8034       -830.5104         56.0004         50.0004
 06  1 11 13 15 38.0000000  0  8G 3G18G27G19G16G22G21G15
 -22957552.32749 -17847123.44549  20681915.1154   20681918.4824   20681915.1584
      1513.5034       1179.3464         56.0004         50.0004
 -17750890.36349 -13784598.63048  22041040.2584   22041042.2164   22041039.8094
       813.2774        633.7114         53.0004         46.0004
  -2987299.81248  -2280453.43447  24968114.3984   24968120.3964   24968115.8374
       948.6484        739.2044         42.0004         37.0004
  -8509747.48048  -6590163.53848  23521587.0654   23521587.7874   23521587.2134
      2991.4124       2330.9664         47.0004         42.0004
 -20355660.50749 -15799067.05949  21190398.9054   21190401.7684   21190398.8984
     -2046.6434      -1594.8024         55.0004         49.0004
 -10652707.37549  -8292240.26248  22591728.1374   22591730.4034   22591728.8334
      2852.7434       2222.9164         51.0004         44.0004
 -15332589.14149 -11694321.21548  22148189.5954   22148191.3894   22148189.7554
     -2508.1164      -1954.3884         52.0004         45.0004
 -26043915.91749 -20249634.13249  20382878.5904   20382882.1634   20382878.7404
     -1065.7914       -830.4914         56.0004         50.0004
 06  1 11 13 15 39.0000000  0  8G 3G18G27G19G16G22G21G15
 -22959065.71249 -17848302.70749  20681627.2224   20681630.7054   20681627.2854
      1513.1054       1179.0474         56.0004         50.0004
 -17751703.40049 -13785232.16248  22040885.4684   22040887.8554   22040885.3204
       812.6654        633.2354         53.0004         46.0004
  -2988247.44047  -2281191.84547  24967934.0194   24967939.8324   24967935.3504
       947.2884        738.1434         41.0004         37.0004
  -8512738.80749  -6592494.44348  23521017.9074   23521018.9254   23521016.9044
      2991.1404       2330.7574         48.0004         42.0004
 -20353613.62949 -15797472.09049  21190788.4034   21190791.0624   21190788.6204
     -2047.1684      -1595.1994         55.0004         49.0004
 -10655560.01149  -8294463.09248  22591185.5674   22591186.9214   22591186.0004
      2852.4224       2222.6684         51.0004         44.0004
 -15330080.84049 -11692366.69748  22148667.0364   22148669.3854   22148667.6484
     -2508.5814      -1954.7354         52.0004         45.0004
 -26042849.88549 -20248803.45849  20383081.5354   20383084.9794   20383081.5314
     -1066.3634       -830.9314         56.0004         50.0004
 06  1 11 13 15 40.0000000  0  8G 3G18G27G19G16G22G21G15
 -22960578.79849 -17849481.73349  20681339.3634   20681342.7174   20681339.6304
      1513.1884       1179.1044         56.0004         50.0004
 -17752515.90849 -13785865.28748  22040730.7584   22040733.2744   22040730.2164
       812.4664        633.0974         53.0004         46.0004
  -2989194.66847  -2281929.94147  24967753.7234   24967759.4194   24967755.0204
       947.1834        738.0554         41.0004         37.0004
  -8515730.12349  -6594825.34048  23520448.9664   23520449.8264   23520449.0724
      2991.6814       2331.1834         48.0004         42.0004
 -20351566.32649 -15795876.78849  21191178.0044   21191180.4424   21191178.3084
     -2047.2714      -1595.2744         55.0004         49.0004
 -10658412.36149  -8296685.69848  22590642.9944   22590643.9104   22590643.0024
      2852.4764       2222.7024         51.0004         44.0004
 -15327572.32249 -11690412.00548  22149144.4404   22149146.4544   22149144.7294
     -2508.3534      -1954.5594         52.0004         45.0004
 -26041783.42649 -20247972.44949  20383284.5224   20383288.0524   20383284.6844
     -1066.4714       -831.0154         56.0004         50.0004
 06  1 11 13 15 41.0000000  0  8G 3G18G27G19G16G22G21G15
 -22962091.41749 -17850660.39849  20681051.6064   20681054.6594   20681051.6354
      1512.2704       1178.3934         56.0004         50.0004
 -17753327.72449 -13786497.87048  22040576.2194   22040578.3604   22040576.2094
       811.2334        632.1154         53.0004         46.0004
  -2990141.28748  -2282667.56347  24967573.7594   24967578.9094   24967574.8334
       945.4614        736.7174         42.0004         37.0004
  -8518721.25749  -6597156.09948  23519880.0884   23519880.5374   23519879.2514
      2991.1354       2330.7544         48.0004         42.0004
 -20349518.42549 -15794281.02249  21191567.7564   21191570.4784   21191567.8084
     -2048.2604      -1596.0494         55.0004         49.0004
 -10661264.27649  -8298907.96748  22590100.5174   22590101.5734   22590099.6774
      2851.5394       2221.9664         51.0004         44.0004
 -15325063.44149 -11688457.03248  22149621.9514   22149625.0704   22149622.3654
     -2509.1744      -1955.2064         52.0004         45.0004
 -26040716.38449 -20247140.98949  20383487.5994   20383491.1514   20383487.7184
     -1067.5724       -831.8744         56.0004         50.0004
 06  1 11 13 15 42.0000000  0  8G 3G18G27G19G16G22G21G15
 -22963603.69149 -17851838.79549  20680763.9274   20680767.1544   20680764.0964
      1511.5694       1177.8424         56.0004         50.0004
 -17754138.97849 -13787130.01648  22040421.8954   22040424.2884   22040422.1434
       810.4354        631.4914         53.0004         46.0004
  -2991087.44247  -2283404.82447  24967393.8684   24967399.2284   24967394.0954
       944.8844        736.2694         41.0004         37.0004
  -8521712.33649  -6599486.81248  23519311.0214   23519310.7624   23519310.7004
      2990.3624       2330.1604         48.0004         42.0004
 -20347470.05349 -15792684.88949  21191957.6784   21191960.2544   21191957.5564
     -2049.1864      -1596.7804         55.0004         49.0004
 -10664115.87849  -8301129.99348  22589558.1014   22589559.3874   22589557.6064
      2850.8924       2221.4644         51.0004         44.0004
 -15322554.31049 -11686501.86348  22150099.5224   22150101.4624   22150099.2674
     -2509.7934      -1955.6824         52.0004         45.0004
 -26039648.88949 -20246309.17749  20383690.8164   20383694.3434   20383691.0124
     -1068.1714       -832.3464         56.0004         50.0004
 06  1 11 13 15 43.0000000  0  8G 3G18G27G19G16G22G21G15
 -22965115.48149 -17853016.81149  20680476.3384   20680479.3554   20680476.1434
      1511.9844       1178.1684         56.0004         50.0004
 -17754949.52149 -13787761.60748  22040267.6364   22040269.5794   22040267.5834
       810.6144        631.6434         53.0004         46.0004
  -2992033.03147  -2284141.64647  24967214.5674   24967219.6484   24967215.0294
       946.7174        737.7004         41.0004         37.0004
  -8524703.22949  -6601817.38048  23518741.8924   23518741.8444   23518740.3584
      2991.3974       2330.9644         48.0004         42.0004
 -20345421.07349 -15791088.28249  21192347.6654   21192350.2694   21192347.4704
     -2048.8844      -1596.5364         55.0004         49.0004
 -10666967.01749  -8303351.66248  22589015.7134   22589016.7384   22589014.8684
      2851.2994       2221.7774         51.0004         44.0004
 -15320044.78149 -11684546.39048  22150577.0894   22150579.0354   22150577.2694
     -2509.2664      -1955.2544         52.0004         45.0004
 -26038580.78049 -20245476.88149  20383894.1844   20383897.3544   20383893.9994
     -1067.9964       -832.2074         56.0004         50.0004
 06  1 11 13 15 44.0000000  0  8G 3G18G27G19G16G22G21G15
 -22966626.83449 -17854194.48849  20680188.8404   20680191.7934   20680188.5564
      1511.1144       1177.4874         56.0004         50.0004
 -17755759.40049 -13788392.68048  22040113.4124   22040115.7804   22040113.1044
       809.4564        630.7434         53.0004         46.0004
  -2992977.97148  -2284877.96347  24967035.1614   24967040.1064   24967035.1224
       944.0714        735.6384         42.0004         37.0004
  -8527693.97149  -6604147.82948  23518172.5884   23518172.3744   23518171.6564
      2990.4994       2330.2534         48.0004         42.0004
 -20343371.52749 -15789491.23449  21192737.8114   21192740.1154   21192737.2014
     -2049.8584      -1597.2934         55.0004         49.0004
 -10669817.74949  -8305573.00648  22588473.4074   22588474.1114   22588473.6054
      2850.5514       2221.1914         51.0004         44.0004
 -15317534.91849 -11682590.64848  22151054.8264   22151056.2424   22151054.3384
     -2510.0384      -1955.8844         52.0004         45.0004
 -26037512.12249 -20244644.16049  20384097.6854   20384100.7664   20384097.3724
     -1068.9574       -832.9594         56.0004         50.0004
 06  1 11 13 15 45.0000000  0  8G 3G18G27G19G16G22G21G15
 -22968137.89249 -17855371.93649  20679901.3254   20679904.0744   20679900.9594
      1511.0864       1177.4724         56.0004         50.0004
 -17756568.75249 -13789023.34648  22039959.2904   22039961.8144   22039959.7384
       809.2634        630.5964         53.0004         46.0004
  -2993922.53548  -2285613.98847  24966855.6264   24966860.0054   24966855.3684
       944.3514        735.8604         42.0004         37.0004
  -8530684.70348  -6606478.26848  23517603.3844   23517603.6844   23517602.1154
      2990.8964       2330.5734         47.0004         42.0004
 -20341321.55549 -15787893.85549  21193128.0234   21193130.0024   21193127.8404
     -2049.9824      -1597.3784         55.0004         49.0004
 -10672668.20449  -8307794.14848  22587931.1644   22587931.7054   22587930.4544
      2850.3874       2221.0544         51.0004         44.0004
 -15315024.84149 -11680634.74248  22151532.5324   22151534.1904   22151532.1064
     -2509.9274      -1955.7764         52.0004         45.0004
 -26036443.05049 -20243811.11849  20384301.1914   20384304.1154   20384300.9504
     -1069.0944       -833.0534         56.0004         50.0004
 06  1 11 13 15 46.0000000  0  8G 3G18G27G19G16G22G21G15
 -22969648.44349 -17856548.98849  20679613.9114   20679616.6264   20679613.6174
      1510.0324       1176.6434         56.0004         50.0004
 -17757377.38149 -13789653.44648  22039805.2874   22039807.4324   22039805.3424
       807.9844        629.5884         52.0004         46.0004
  -2994866.42748  -2286349.48747  24966676.2454   24966680.4104   24966675.3734
       943.3794        735.0984         43.0004         37.0004
  -8533675.22649  -6608808.54748  23517034.3044   23517034.7514   23517033.6974
      2990.1834       2330.0034         48.0004         42.0004
 -20339270.95649 -15786295.98449  21193518.3174   21193520.5174   21193517.5654
     -2051.0894      -1598.2584         55.0004         49.0004
 -10675518.19149  -8310014.91148  22587388.9114   22587389.3184   22587388.2224
      2849.4454       2220.3284         51.0004         45.0004
 -15312514.36249 -11678678.52648  22152010.1864   22152011.8394   22152009.8434
     -2510.9574      -1956.5824         52.0004         45.0004
 -26035373.34749 -20242977.58149  20384504.7954   20384508.1394   20384504.6934
     -1070.3514       -834.0474         56.0004         50.0004
 06  1 11 13 15 47.0000000  0  8G 3G18G27G19G16G22G21G15
 -22971158.65949 -17857725.77949  20679326.5634   20679329.2634   20679326.2694
      1509.7434       1176.4264         56.0004         50.0004
 -17758185.44949 -13790283.10648  22039651.3604   22039654.0574   22039652.1824
       807.5134        629.2444         53.0004         46.0004
  -2995809.85948  -2287084.62847  24966497.4144   24966500.3734   24966496.2844
       942.6684        734.5474         42.0004         37.0004
  -8536665.70049  -6611138.78448  23516465.2794   23516466.6364   23516464.3724
      2990.1904       2329.9984         48.0004         42.0004
 -20337219.89249 -15784697.75249  21193908.6764   21193910.9844   21193908.1294
     -2051.5824      -1598.6354         55.0004         49.0004
 -10678367.88149  -8312235.44448  22586846.5624   22586847.3244   22586845.5254
      2849.2364       2220.1814         51.0004         44.0004
 -15310003.64049 -11676722.12348  22152487.8724   22152489.6654   22152487.1294
     -2511.1854      -1956.7694         52.0004         45.0004
 -26034303.20549 -20242143.70449  20384708.5214   20384711.3094   20384708.0834
     -1070.6674       -834.2834         56.0004         50.0004
 06  1 11 13 15 48.0000000  0  8G 3G18G27G19G16G22G21G15
 -22972668.46249 -17858902.25049  20679039.2444   20679041.9454   20679039.1004
      1510.4394       1176.9674         56.0004         50.0004
 -17758992.88349 -13790912.27848  22039497.5974   22039500.1434   22039498.0194
       807.9534        629.5674         53.0004         46.0004
  -2996752.79948  -2287819.38547  24966318.4704   24966320.7884   24966317.0734
       943.6174        735.2814         43.0004         37.0004
  -8539656.04649  -6613468.92348  23515896.3074   23515897.3204   23515894.6974
      2991.0984       2330.7234         48.0004         42.0004
 -20335168.28049 -15783099.09549  21194299.0764   21194301.0024   21194298.6934
     -2051.0264      -1598.2014         55.0004         49.0004
 -10681217.17449  -8314455.67748  22586304.2314   22586305.4144   22586303.4124
      2850.0474       2220.8214         51.0004         44.0004
 -15307492.59849 -11674765.46748  22152965.5694   22152967.5624   22152965.2124
     -2510.1914      -1956.0024         52.0004         45.0004
 -26033232.53049 -20241309.41249  20384912.3434   20384915.3234   20384911.8944
     -1070.1144       -833.8574         56.0004         50.0004
 06  1 11 13 15 49.0000000  0  8G 3G18G27G19G16G22G21G15
 -22974177.85649 -17860078.40049  20678752.0564   20678754.6084   20678751.6874
      1508.9924       1175.8384         56.0004         50.0004
 -17759799.68949 -13791540.95548  22039344.0654   22039347.2464   22039344.4034
       806.3804        628.3594         52.0004         46.0004
